$GPRMC,075732.000,A,5102.0329,N,01344.3705,E,0.00,,100712,,,A*7C
$GPVTG,,T,,M,0.00,N,0.0,K,A*13
$GPGGA,075733.000,5102.0329,N,01344.3705,E,1,09,1.1,125.0,M,45.8,M,,0000*52
$GPRMC,075733.000,A,5102.0329,N,01344.3705,E,0.00,,100712,,,A*7D
$GPVTG,,T,,M,0.00,N,0.0,K,A*13
$GPGGA,075734.000,5102.0329,N,01344.3705,E,1,09,1.1,125.0,M,45.8,M,,0000*55
$GPRMC,075734.000,A,5102.0329,N,01344.3705,E,0.00,,100712,,,A*7A
$GPVTG,,T,,M,0.00,N,0.0,K,A*13
$GPGGA,075735.000,5102.0329,N,01344.3705,E,1,09,1.1,125.0,M,45.8,M,,0000*54
$GPRMC,075735.000,A,5102.0329,N,01344.3705,E,0.00,,100712,,,A*7B
$GPVTG,,T,,M,0.00,N,0.0,K,A*13
$GPGGA,075736.000,5102.0329,N,01344.3705,E,1,09,1.1,125.0,M,45.8,M,,0000*57
$GPRMC,075736.000,A,5102.0329,N,01344.3705,E,0.00,,100712,,,A*78
$GPVTG,,T,,M,0.00,N,0.0,K,A*13
$GPGGA,075737.000,5102.0329,N,01344.3705,E,1,09,1.1,125.0,M,45.8,M,,0000*56
$GPGSA,A,3,05,15,19,28,27,21,26,07,08,,,,1.7,1.1,1.3*38
$GPGSV,3,1,12,26,77,298,39,28,60,133,44,08,53,062,41,05,38,208,44*73
$GPGSV,3,2,12,15,34,297,32,27,20,256,35,07,13,070,33,19,11,035,42*7F
$GPGSV,3,3,12,21,07,308,21,18,04,328,29,09,02,254,,10,01,170,*77
$GPRMC,075737.000,A,5102.0329,N,01344.3705,E,0.00,,100712,,,A*79
$GPVTG,,T,,M,0.00,N,0.0,K,A*13
$GPGGA,075738.000,5102.0329,N,01344.3705,E,1,09,1.1,125.0,M,45.8,M,,0000*59
$GPRMC,075738.000,A,5102.0329,N,01344.3705,E,0.00,,100712,,,A*76
$GPVTG,,T,,M,0.00,N,0.0,K,A*13
$GPGGA,075739.000,5102.0329,N,01344.3705,E,1,08,1.1,125.0,M,45.8,M,,0000*59
$GPRMC,075739.000,A,5102.0329,N,01344.3705,E,0.00,,100712,,,A*77
$GPVTG,,T,,M,0.00,N,0.0,K,A*13
$GPGGA,075740.000,5102.0329,N,01344.3705,E,1,08,1.1,125.0,M,45.8,M,,0000*57
$GPRMC,075740.000,A,5102.0329,N,01344.3705,E,0.00,,100712,,,A*79
$GPVTG,,T,,M,0.00,N,0.0,K,A*13
$GPGGA,075741.000,5102.0329,N,01344.3705,E,1,08,1.1,125.0,M,45.8,M,,0000*56
$GPRMC,075741.000,A,5102.0329,N,01344.3705,E,0.00,,100712,,,A*78
$GPVTG,,T,,M,0.00,N,0.0,K,A*13
$GPGGA,075742.000,5102.0329,N,01344.3705,E,1,08,1.1,125.0,M,45.8,M,,0000*55
$GPGSA,A,3,05,15,19,28,27,26,07,08,,,,,1.8,1.1,1.4*33
$GPGSV,3,1,12,26,77,298,40,28,60,133,44,08,53,062,41,05,38,208,44*7D
$GPGSV,3,2,12,15,34,297,32,27,20,256,35,07,13,070,32,19,11,035,42*7E
$GPGSV,3,3,12,21,07,308,,18,04,328,30,09,02,254,,10,01,170,*7C
$GPRMC,075742.000,A,5102.0329,N,01344.3705,E,0.00,,100712,,,A*7B
$GPVTG,,T,,M,0.00,N,0.0,K,A*13
$GPGGA,075743.000,5102.0329,N,01344.3705,E,1,08,1.1,125.0,M,45.8,M,,0000*54
$GPRMC,075743.000,A,5102.0329,N,01344.3705,E,0.00,,100712,,,A*7A
$GPVTG,,T,,M,0.00,N,0.0,K,A*13
$GPGGA,075744.000,5102.0329,N,01344.3705,E,1,09,1.1,125.0,M,45.8,M,,0000*52
$GPRMC,075744.000,A,5102.0329,N,01344.3705,E,0.00,,100712,,,A*7D
$GPVTG,,T,,M,0.00,N,0.0,K,A*13
$GPGGA,075745.000,5102.0329,N,01344.3705,E,1,09,1.1,125.0,M,45.8,M,,0000*53
$GPRMC,075745.000,A,5102.0329,N,01344.3705,E,0.00,,100712,,,A*7C
$GPVTG,,T,,M,0.00,N,0.0,K,A*13
$GPGGA,075746.000,5102.0329,N,01344.3705,E,1,09,1.1,125.0,M,45.8,M,,0000*50
$GPRMC,075746.000,A,5102.0329,N,01344.3705,E,0.00,,100712,,,A*7F
$GPVTG,,T,,M,0.00,N,0.0,K,A*13
$GPGGA,075747.000,5102.0329,N,01344.3705,E,1,09,1.1,125.0,M,45.8,M,,0000*51
$GPGSA,A,3,05,15,19,28,27,21,26,07,08,,,,1.7,1.1,1.3*38
$GPGSV,3,1,12,26,77,298,36,28,60,132,41,08,53,062,34,05,37,208,44*75
$GPGSV,3,2,12,15,34,297,40,27,20,257,37,07,12,070,40,19,11,035,41*7F
$GPGSV,3,3,12,21,06,307,23,18,04,327,31,09,02,254,,10,00,170,*7C
$GPRMC,075747.000,A,5102.0329,N,01344.3705,E,0.00,,100712,,,A*7E
$GPVTG,,T,,M,0.00,N,0.0,K,A*13
$GPGGA,075748.000,5102.0329,N,01344.3705,E,1,09,1.1,125.0,M,45.8,M,,0000*5E
$GPRMC,075748.000,A,5102.0329,N,01344.3705,E,0.00,,100712,,,A*71
$GPVTG,,T,,M,0.00,N,0.0,K,A*13
$GPGGA,075749.000,5102.0329,N,01344.3705,E,1,09,1.1,125.0,M,45.8,M,,0000*5F
$GPRMC,075749.000,A,5102.0329,N,01344.3705,E,0.00,,100712,,,A*70
$GPVTG,,T,,M,0.00,N,0.0,K,A*13
$GPGGA,075750.000,5102.0329,N,01344.3705,E,1,09,1.1,125.0,M,45.8,M,,0000*57
$GPRMC,075750.000,A,5102.0329,N,01344.3705,E,0.00,,100712,,,A*78
$GPVTG,,T,,M,0.00,N,0.0,K,A*13
$GPGGA,075751.000,5102.0329,N,01344.3705,E,1,09,1.1,125.0,M,45.8,M,,0000*56
$GPRMC,075751.000,A,5102.0329,N,01344.3705,E,0.00,,100712,,,A*79
$GPVTG,,T,,M,0.00,N,0.0,K,A*13
$GPGGA,075752.000,5102.0329,N,01344.3705,E,1,09,1.1,125.0,M,45.8,M,,0000*55
$GPGSA,A,3,05,15,19,28,27,21,26,07,08,,,,1.7,1.1,1.3*38
$GPGSV,3,1,12,26,77,298,39,28,60,132,42,08,53,062,35,05,37,208,45*79
$GPGSV,3,2,12,15,34,297,42,27,20,257,42,07,12,070,33,19,11,035,40*7A
$GPGSV,3,3,12,21,06,307,25,18,04,327,29,09,02,254,,10,00,170,*73
$GPRMC,075752.000,A,5102.0329,N,01344.3705,E,0.00,,100712,,,A*7A
$GPVTG,,T,,M,0.00,N,0.0,K,A*13
$GPGGA,075753.000,5102.0329,N,01344.3705,E,1,09,1.1,125.0,M,45.8,M,,0000*54
$GPRMC,075753.000,A,5102.0329,N,01344.3705,E,0.00,,100712,,,A*7B
$GPVTG,,T,,M,0.00,N,0.0,K,A*13
$GPGGA,075754.000,5102.0329,N,01344.3705,E,1,08,1.1,125.0,M,45.8,M,,0000*52
$GPRMC,075754.000,A,5102.0329,N,01344.3705,E,0.00,,100712,,,A*7C
$GPVTG,,T,,M,0.00,N,0.0,K,A*13
$GPGGA,075755.000,5102.0329,N,01344.3705,E,1,09,1.1,125.0,M,45.8,M,,0000*52
$GPRMC,075755.000,A,5102.0329,N,01344.3705,E,0.00,,100712,,,A*7D
$GPVTG,,T,,M,0.00,N,0.0,K,A*13
$GPGGA,075756.000,5102.0329,N,01344.3705,E,1,09,1.1,125.0,M,45.8,M,,0000*51
$GPRMC,075756.000,A,5102.0329,N,01344.3705,E,0.00,,100712,,,A*7E
$GPVTG,,T,,M,0.00,N,0.0,K,A*13
$GPGGA,075757.000,5102.0329,N,01344.3705,E,1,09,1.1,125.0,M,45.8,M,,0000*50
$GPGSA,A,3,05,15,19,28,27,21,26,07,08,,,,1.7,1.1,1.3*38
$GPGSV,3,1,12,26,77,298,42,28,60,132,43,08,53,062,38,05,37,208,46*7A
$GPGSV,3,2,12,15,34,297,47,27,20,257,41,07,12,070,28,19,11,035,30*71
$GPGSV,3,3,12,21,06,307,25,18,04,327,28,09,02,254,,10,00,170,*72
$GPRMC,075757.000,A,5102.0329,N,01344.3705,E,0.00,,100712,,,A*7F
$GPVTG,,T,,M,0.00,N,0.0,K,A*13
$GPGGA,075758.000,5102.0329,N,01344.3705,E,1,09,1.1,125.0,M,45.8,M,,0000*5F
$GPRMC,075758.000,A,5102.0329,N,01344.3705,E,0.00,,100712,,,A*70
$GPVTG,,T,,M,0.00,N,0.0,K,A*13
$GPGGA,075759.000,5102.0329,N,01344.3705,E,1,09,1.1,125.0,M,45.8,M,,0000*5E
$GPRMC,075759.000,A,5102.0329,N,01344.3705,E,0.00,,100712,,,A*71
$GPVTG,,T,,M,0.00,N,0.0,K,A*13
$GPGGA,075800.000,5102.0329,N,01344.3705,E,1,09,1.1,125.0,M,45.8,M,,0000*5D
$GPRMC,075800.000,A,5102.0329,N,01344.3705,E,0.00,,100712,,,A*72
$GPVTG,,T,,M,0.00,N,0.0,K,A*13
$GPGGA,075801.000,5102.0329,N,01344.3705,E,1,09,1.1,125.0,M,45.8,M,,0000*5C
$GPRMC,075801.000,A,5102.0329,N,01344.3705,E,0.00,,100712,,,A*73
$GPVTG,,T,,M,0.00,N,0.0,K,A*13
$GPGGA,075802.000,5102.0329,N,01344.3705,E,1,09,1.1,125.0,M,45.8,M,,0000*5F
$GPGSA,A,3,05,15,19,28,27,21,26,07,08,,,,1.7,1.1,1.3*38
$GPGSV,3,1,12,26,77,298,44,28,60,132,44,08,53,062,39,05,37,208,46*7A
$GPGSV,3,2,12,15,34,297,46,27,20,257,42,07,12,070,36,19,11,035,33*7F
$GPGSV,3,3,12,21,06,307,24,18,04,327,25,09,02,254,,10,00,170,*7E
$GPRMC,075802.000,A,5102.0329,N,01344.3705,E,0.00,,100712,,,A*70
$GPVTG,,T,,M,0.00,N,0.0,K,A*13
$GPGGA,075803.000,5102.0329,N,01344.3705,E,1,09,1.1,125.0,M,45.8,M,,0000*5E
$GPRMC,075803.000,A,5102.0329,N,01344.3705,E,0.00,,100712,,,A*71
$GPVTG,,T,,M,0.00,N,0.0,K,A*13
$GPGGA,075804.000,5102.0329,N,01344.3705,E,1,09,1.1,125.0,M,45.8,M,,0000*59
$GPRMC,075804.000,A,5102.0329,N,01344.3705,E,0.00,,100712,,,A*76
$GPVTG,,T,,M,0.00,N,0.0,K,A*13
$GPGGA,075805.000,5102.0329,N,01344.3705,E,1,09,1.1,125.0,M,45.8,M,,0000*58
$GPRMC,075805.000,A,5102.0329,N,01344.3705,E,0.00,,100712,,,A*77
$GPVTG,,T,,M,0.00,N,0.0,K,A*13
$GPGGA,075806.000,5102.0329,N,01344.3705,E,1,09,1.1,125.0,M,45.8,M,,0000*5B
$GPRMC,075806.000,A,5102.0329,N,01344.3705,E,0.00,,100712,,,A*74
$GPVTG,,T,,M,0.00,N,0.0,K,A*13
$GPGGA,075807.000,5102.0329,N,01344.3705,E,1,09,1.1,125.0,M,45.8,M,,0000*5A
$GPGSA,A,3,05,15,19,28,27,21,26,07,08,,,,1.7,1.1,1.3*38
$GPGSV,3,1,12,26,77,298,47,28,60,132,33,08,53,062,40,05,37,208,46*77
$GPGSV,3,2,12,15,34,297,46,27,20,257,43,07,12,070,38,19,11,035,39*7A
$GPGSV,3,3,12,21,06,307,23,18,04,327,,09,02,254,,10,00,170,*7E
$GPRMC,075807.000,A,5102.0329,N,01344.3705,E,0.00,,100712,,,A*75
$GPVTG,,T,,M,0.00,N,0.0,K,A*13
$GPGGA,075808.000,5102.0366,N,01344.3582,E,1,09,1.1,116.0,M,45.8,M,,0000*53
$GPRMC,075808.000,A,5102.0366,N,01344.3582,E,1.43,21.44,100712,,,A*57
$GPVTG,21.44,T,,M,1.43,N,2.6,K,A*3C
$GPGGA,075809.000,5102.0374,N,01344.3586,E,1,09,1.1,116.0,M,45.8,M,,0000*55
$GPRMC,075809.000,A,5102.0374,N,01344.3586,E,2.95,20.89,100712,,,A*59
$GPVTG,20.89,T,,M,2.95,N,5.5,K,A*30
$GPGGA,075810.000,5102.0382,N,01344.3591,E,1,09,1.1,115.9,M,45.8,M,,0000*58
$GPRMC,075810.000,A,5102.0382,N,01344.3591,E,3.02,22.90,100712,,,A*5B
$GPVTG,22.90,T,,M,3.02,N,5.6,K,A*36
$GPGGA,075811.000,5102.0390,N,01344.3596,E,1,09,1.1,115.9,M,45.8,M,,0000*5D
$GPRMC,075811.000,A,5102.0390,N,01344.3596,E,3.01,24.93,100712,,,A*58
$GPVTG,24.93,T,,M,3.01,N,5.6,K,A*30
$GPGGA,075812.000,5102.0397,N,01344.3602,E,1,08,1.1,115.9,M,45.8,M,,0000*56
$GPGSA,A,3,05,15,19,28,27,26,07,08,,,,,1.8,1.1,1.4*33
$GPGSV,3,1,12,26,77,298,47,28,60,132,43,08,53,062,41,05,37,208,47*70
$GPGSV,3,2,12,15,34,297,46,27,20,257,37,07,12,070,40,19,11,035,37*78
$GPGSV,3,3,12,21,06,307,22,18,04,327,,09,02,254,,10,00,170,*7F
$GPRMC,075812.000,A,5102.0397,N,01344.3602,E,3.05,34.37,100712,,,A*59
$GPVTG,34.37,T,,M,3.05,N,5.6,K,A*3B
$GPGGA,075813.000,5102.0403,N,01344.3610,E,1,08,1.1,115.8,M,45.8,M,,0000*5F
$GPRMC,075813.000,A,5102.0403,N,01344.3610,E,2.97,49.36,100712,,,A*50
$GPVTG,49.36,T,,M,2.97,N,5.5,K,A*39
$GPGGA,075814.000,5102.0408,N,01344.3621,E,1,09,1.1,115.8,M,45.8,M,,0000*50
$GPRMC,075814.000,A,5102.0408,N,01344.3621,E,3.01,64.33,100712,,,A*5A
$GPVTG,64.33,T,,M,3.01,N,5.6,K,A*3E
$GPGGA,075815.000,5102.0411,N,01344.3634,E,1,09,1.1,115.8,M,45.8,M,,0000*5D
$GPRMC,075815.000,A,5102.0411,N,01344.3634,E,3.14,78.93,100712,,,A*54
$GPVTG,78.93,T,,M,3.14,N,5.8,K,A*33
$GPGGA,075816.000,5102.0412,N,01344.3647,E,1,09,1.1,115.8,M,45.8,M,,0000*59
$GPRMC,075816.000,A,5102.0412,N,01344.3647,E,3.06,87.92,100712,,,A*52
$GPVTG,87.92,T,,M,3.06,N,5.7,K,A*3E
$GPGGA,075817.000,5102.0411,N,01344.3660,E,1,09,1.1,115.9,M,45.8,M,,0000*5F
$GPGSA,A,3,05,15,19,28,27,21,26,07,08,,,,1.7,1.1,1.3*38
$GPGSV,3,1,12,26,78,298,46,28,60,132,37,08,53,062,46,05,37,208,41*7C
$GPGSV,3,2,12,15,34,297,46,27,20,257,45,07,12,070,37,19,11,035,30*7A
$GPGSV,3,3,12,21,06,307,23,18,05,327,,09,03,254,,10,00,170,*7E
$GPRMC,075817.000,A,5102.0411,N,01344.3660,E,3.04,98.49,100712,,,A*5F
$GPVTG,98.49,T,,M,3.04,N,5.6,K,A*35
$GPGGA,075818.000,5102.0410,N,01344.3673,E,1,09,1.1,115.9,M,45.8,M,,0000*53
$GPRMC,075818.000,A,5102.0410,N,01344.3673,E,2.94,100.78,100712,,,A*69
$GPVTG,100.78,T,,M,2.94,N,5.5,K,A*0C
$GPGGA,075819.000,5102.0409,N,01344.3684,E,1,09,1.1,116.0,M,45.8,M,,0000*58
$GPRMC,075819.000,A,5102.0409,N,01344.3684,E,2.84,99.99,100712,,,A*57
$GPVTG,99.99,T,,M,2.84,N,5.3,K,A*35
$GPGGA,075820.000,5102.0408,N,01344.3696,E,1,09,1.1,116.1,M,45.8,M,,0000*51
$GPRMC,075820.000,A,5102.0408,N,01344.3696,E,2.80,98.18,100712,,,A*53
$GPVTG,98.18,T,,M,2.80,N,5.2,K,A*38
$GPGGA,075821.000,5102.0406,N,01344.3708,E,1,09,1.1,116.2,M,45.8,M,,0000*5B
$GPRMC,075821.000,A,5102.0406,N,01344.3708,E,2.78,108.19,100712,,,A*64
$GPVTG,108.19,T,,M,2.78,N,5.1,K,A*05
$GPGGA,075822.000,5102.0403,N,01344.3719,E,1,09,1.1,116.2,M,45.8,M,,0000*5D
$GPGSA,A,3,05,15,19,28,27,21,26,07,08,,,,1.7,1.1,1.3*38
$GPGSV,3,1,12,26,78,298,46,28,60,132,45,08,53,062,47,05,37,208,38*76
$GPGSV,3,2,12,15,34,297,47,27,20,257,38,07,12,070,37,19,11,035,29*79
$GPGSV,3,3,12,21,06,307,31,18,05,327,23,09,03,254,18,10,00,170,*75
$GPRMC,075822.000,A,5102.0403,N,01344.3719,E,2.81,111.62,100712,,,A*60
$GPVTG,111.62,T,,M,2.81,N,5.2,K,A*04
$GPGGA,075823.000,5102.0400,N,01344.3731,E,1,09,1.1,116.2,M,45.8,M,,0000*55
$GPRMC,075823.000,A,5102.0400,N,01344.3731,E,2.89,114.60,100712,,,A*67
$GPVTG,114.60,T,,M,2.89,N,5.4,K,A*0D
$GPGGA,075824.000,5102.0396,N,01344.3741,E,1,09,1.1,116.2,M,45.8,M,,0000*5D
$GPRMC,075824.000,A,5102.0396,N,01344.3741,E,2.82,131.96,100712,,,A*6A
$GPVTG,131.96,T,,M,2.82,N,5.2,K,A*0E
$GPGGA,075825.000,5102.0391,N,01344.3748,E,1,09,1.1,116.3,M,45.8,M,,0000*53
$GPRMC,075825.000,A,5102.0391,N,01344.3748,E,2.66,146.46,100712,,,A*62
$GPVTG,146.46,T,,M,2.66,N,4.9,K,A*03
$GPGGA,075826.000,5102.0385,N,01344.3753,E,1,09,1.1,116.3,M,45.8,M,,0000*5F
$GPRMC,075826.000,A,5102.0385,N,01344.3753,E,2.52,151.96,100712,,,A*62
$GPVTG,151.96,T,,M,2.52,N,4.7,K,A*01
$GPGGA,075827.000,5102.0379,N,01344.3756,E,1,09,1.1,116.3,M,45.8,M,,0000*58
$GPGSA,A,3,05,15,19,28,27,21,26,07,08,,,,1.7,1.1,1.3*38
$GPGSV,3,1,12,26,78,298,45,28,60,132,43,08,53,062,48,05,37,208,37*73
$GPGSV,3,2,12,15,34,297,39,27,20,257,37,07,12,070,39,19,11,035,32*7B
$GPGSV,3,3,12,21,06,307,32,18,05,327,,09,03,254,,10,00,170,13*7C
$GPRMC,075827.000,A,5102.0379,N,01344.3756,E,2.45,169.43,100712,,,A*60
$GPVTG,169.43,T,,M,2.45,N,4.5,K,A*06
$GPGGA,075828.000,5102.0372,N,01344.3756,E,1,09,1.1,116.3,M,45.8,M,,0000*5C
$GPRMC,075828.000,A,5102.0372,N,01344.3756,E,2.55,183.40,100712,,,A*62
$GPVTG,183.40,T,,M,2.55,N,4.7,K,A*02
$GPGGA,075829.000,5102.0365,N,01344.3754,E,1,09,1.1,116.4,M,45.8,M,,0000*5E
$GPRMC,075829.000,A,5102.0365,N,01344.3754,E,2.57,198.04,100712,,,A*6F
$GPVTG,198.04,T,,M,2.57,N,4.8,K,A*05
$GPGGA,075830.000,5102.0358,N,01344.3750,E,1,09,1.1,116.5,M,45.8,M,,0000*5D
$GPRMC,075830.000,A,5102.0358,N,01344.3750,E,2.62,193.88,100712,,,A*64
$GPVTG,193.88,T,,M,2.62,N,4.9,K,A*0D
$GPGGA,075831.000,5102.0352,N,01344.3745,E,1,09,1.1,116.7,M,45.8,M,,0000*50
$GPRMC,075831.000,A,5102.0352,N,01344.3745,E,2.49,207.82,100712,,,A*66
$GPVTG,207.82,T,,M,2.49,N,4.6,K,A*0F
$GPGGA,075832.000,5102.0348,N,01344.3740,E,1,09,1.1,116.9,M,45.8,M,,0000*53
$GPGSA,A,3,05,15,19,28,27,21,26,07,08,,,,1.7,1.1,1.3*38
$GPGSV,3,1,12,26,78,298,44,28,60,132,38,08,53,062,41,05,37,208,38*78
$GPGSV,3,2,12,15,34,297,39,27,20,257,37,07,12,070,34,19,11,035,44*77
$GPGSV,3,3,12,21,06,307,27,18,05,327,29,09,03,254,,10,00,170,*71
$GPRMC,075832.000,A,5102.0348,N,01344.3740,E,2.14,217.40,100712,,,A*6C
$GPVTG,217.40,T,,M,2.14,N,4.0,K,A*0E
$GPGGA,075833.000,5102.0344,N,01344.3733,E,1,09,1.1,117.0,M,45.8,M,,0000*52
$GPRMC,075833.000,A,5102.0344,N,01344.3733,E,0.00,217.40,100712,,,A*62
$GPVTG,217.40,T,,M,0.00,N,0.0,K,A*0D
$GPGGA,075834.000,5102.0344,N,01344.3733,E,1,09,1.1,117.0,M,45.8,M,,0000*55
$GPRMC,075834.000,A,5102.0344,N,01344.3733,E,0.00,217.40,100712,,,A*65
$GPVTG,217.40,T,,M,0.00,N,0.0,K,A*0D
$GPGGA,075835.000,5102.0344,N,01344.3733,E,1,09,1.1,117.0,M,45.8,M,,0000*54
$GPRMC,075835.000,A,5102.0344,N,01344.3733,E,0.00,217.40,100712,,,A*64
$GPVTG,217.40,T,,M,0.00,N,0.0,K,A*0D
$GPGGA,075836.000,5102.0344,N,01344.3733,E,1,09,1.1,117.0,M,45.8,M,,0000*57
$GPRMC,075836.000,A,5102.0344,N,01344.3733,E,0.00,217.40,100712,,,A*67
$GPVTG,217.40,T,,M,0.00,N,0.0,K,A*0D
$GPGGA,075837.000,5102.0344,N,01344.3733,E,1,08,1.1,117.0,M,45.8,M,,0000*57
$GPGSA,A,3,05,15,19,28,27,26,07,08,,,,,1.8,1.1,1.4*33
$GPGSV,3,1,12,26,78,298,35,28,60,132,42,08,53,062,31,05,37,208,44*7F
$GPGSV,3,2,12,15,34,297,41,27,20,257,38,07,12,070,32,19,11,035,42*77
$GPGSV,3,3,12,21,06,307,26,18,05,327,36,09,03,254,,10,00,170,*7E
$GPRMC,075837.000,A,5102.0344,N,01344.3733,E,0.00,217.40,100712,,,A*66
$GPVTG,217.40,T,,M,0.00,N,0.0,K,A*0D
$GPGGA,075838.000,5102.0344,N,01344.3733,E,1,08,1.1,117.0,M,45.8,M,,0000*58
$GPRMC,075838.000,A,5102.0344,N,01344.3733,E,0.00,217.40,100712,,,A*69
$GPVTG,217.40,T,,M,0.00,N,0.0,K,A*0D
$GPGGA,075839.000,5102.0344,N,01344.3733,E,1,09,1.1,117.0,M,45.8,M,,0000*58
$GPRMC,075839.000,A,5102.0344,N,01344.3733,E,0.00,217.40,100712,,,A*68
$GPVTG,217.40,T,,M,0.00,N,0.0,K,A*0D
$GPGGA,075840.000,5102.0344,N,01344.3733,E,1,08,1.1,117.0,M,45.8,M,,0000*57
$GPRMC,075840.000,A,5102.0344,N,01344.3733,E,0.00,217.40,100712,,,A*66
$GPVTG,217.40,T,,M,0.00,N,0.0,K,A*0D
$GPGGA,075841.000,5102.0344,N,01344.3733,E,1,08,1.1,117.0,M,45.8,M,,0000*56
$GPRMC,075841.000,A,5102.0344,N,01344.3733,E,0.00,217.40,100712,,,A*67
$GPVTG,217.40,T,,M,0.00,N,0.0,K,A*0D
$GPGGA,075842.000,5102.0344,N,01344.3733,E,1,08,1.1,117.0,M,45.8,M,,0000*55
$GPGSA,A,3,05,15,19,28,27,26,07,08,,,,,1.8,1.1,1.4*33
$GPGSV,3,1,12,26,78,298,46,28,60,132,44,08,53,062,42,05,37,208,44*79
$GPGSV,3,2,12,15,34,297,40,27,20,257,44,07,12,070,35,19,11,035,35*7A
$GPGSV,3,3,12,21,06,307,26,18,05,327,30,09,03,254,,10,00,170,*78
$GPRMC,075842.000,A,5102.0344,N,01344.3733,E,0.00,217.40,100712,,,A*64
$GPVTG,217.40,T,,M,0.00,N,0.0,K,A*0D
$GPGGA,075843.000,5102.0344,N,01344.3733,E,1,07,1.4,117.0,M,45.8,M,,0000*5E
$GPRMC,075843.000,A,5102.0344,N,01344.3733,E,0.00,217.40,100712,,,A*65
$GPVTG,217.40,T,,M,0.00,N,0.0,K,A*0D
$GPGGA,075844.000,5102.0344,N,01344.3733,E,1,08,1.1,117.0,M,45.8,M,,0000*53
$GPRMC,075844.000,A,5102.0344,N,01344.3733,E,0.00,217.40,100712,,,A*62
$GPVTG,217.40,T,,M,0.00,N,0.0,K,A*0D
$GPGGA,075845.000,5102.0344,N,01344.3733,E,1,09,1.1,117.0,M,45.8,M,,0000*53
$GPRMC,075845.000,A,5102.0344,N,01344.3733,E,0.00,217.40,100712,,,A*63
$GPVTG,217.40,T,,M,0.00,N,0.0,K,A*0D
$GPGGA,075846.000,5102.0344,N,01344.3733,E,1,09,1.1,117.0,M,45.8,M,,0000*50
$GPRMC,075846.000,A,5102.0344,N,01344.3733,E,0.00,217.40,100712,,,A*60
$GPVTG,217.40,T,,M,0.00,N,0.0,K,A*0D
$GPGGA,075847.000,5102.0344,N,01344.3733,E,1,10,1.0,117.0,M,45.8,M,,0000*58
$GPGSA,A,3,05,15,19,28,27,26,07,18,21,08,,,1.6,1.0,1.3*31
$GPGSV,3,1,12,26,78,298,47,28,60,132,45,08,52,062,45,05,37,208,42*79
$GPGSV,3,2,12,15,34,297,45,27,20,257,43,07,12,071,36,19,11,034,28*77
$GPGSV,3,3,12,21,06,307,27,18,05,327,29,09,03,254,21,10,00,170,*72
$GPRMC,075847.000,A,5102.0344,N,01344.3733,E,0.00,217.40,100712,,,A*61
$GPVTG,217.40,T,,M,0.00,N,0.0,K,A*0D
$GPGGA,075848.000,5102.0344,N,01344.3733,E,1,10,1.0,117.0,M,45.8,M,,0000*57
$GPRMC,075848.000,A,5102.0344,N,01344.3733,E,0.00,217.40,100712,,,A*6E
$GPVTG,217.40,T,,M,0.00,N,0.0,K,A*0D
$GPGGA,075849.000,5102.0344,N,01344.3733,E,1,10,1.0,117.0,M,45.8,M,,0000*56
$GPRMC,075849.000,A,5102.0344,N,01344.3733,E,0.00,217.40,100712,,,A*6F
$GPVTG,217.40,T,,M,0.00,N,0.0,K,A*0D
$GPGGA,075850.000,5102.0344,N,01344.3733,E,1,09,1.1,117.0,M,45.8,M,,0000*57
$GPRMC,075850.000,A,5102.0344,N,01344.3733,E,0.00,217.40,100712,,,A*67
$GPVTG,217.40,T,,M,0.00,N,0.0,K,A*0D
$GPGGA,075851.000,5102.0344,N,01344.3733,E,1,09,1.1,117.0,M,45.8,M,,0000*56
$GPRMC,075851.000,A,5102.0344,N,01344.3733,E,0.00,217.40,100712,,,A*66
$GPVTG,217.40,T,,M,0.00,N,0.0,K,A*0D
$GPGGA,075852.000,5102.0344,N,01344.3733,E,1,10,1.0,117.0,M,45.8,M,,0000*5C
$GPGSA,A,3,05,15,19,28,27,18,26,07,21,08,,,1.6,1.0,1.3*31
$GPGSV,3,1,12,26,78,298,47,28,60,132,47,08,52,062,46,05,37,208,34*79
$GPGSV,3,2,12,15,34,297,45,27,20,257,30,07,12,071,36,19,11,034,27*7C
$GPGSV,3,3,12,21,06,307,28,18,05,327,32,09,03,254,,10,00,170,*74
$GPRMC,075852.000,A,5102.0344,N,01344.3733,E,0.00,217.40,100712,,,A*65
$GPVTG,217.40,T,,M,0.00,N,0.0,K,A*0D
$GPGGA,075853.000,5102.0344,N,01344.3733,E,1,10,1.0,117.0,M,45.8,M,,0000*5D
$GPRMC,075853.000,A,5102.0344,N,01344.3733,E,0.00,217.40,100712,,,A*64
$GPVTG,217.40,T,,M,0.00,N,0.0,K,A*0D
$GPGGA,075854.000,5102.0344,N,01344.3733,E,1,10,1.0,117.0,M,45.8,M,,0000*5A
$GPRMC,075854.000,A,5102.0344,N,01344.3733,E,0.00,217.40,100712,,,A*63
$GPVTG,217.40,T,,M,0.00,N,0.0,K,A*0D
$GPGGA,075855.000,5102.0344,N,01344.3733,E,1,10,1.0,117.0,M,45.8,M,,0000*5B
$GPRMC,075855.000,A,5102.0344,N,01344.3733,E,0.00,217.40,100712,,,A*62
$GPVTG,217.40,T,,M,0.00,N,0.0,K,A*0D
$GPGGA,075856.000,5102.0344,N,01344.3733,E,1,10,1.0,117.0,M,45.8,M,,0000*58
$GPRMC,075856.000,A,5102.0344,N,01344.3733,E,0.00,217.40,100712,,,A*61
$GPVTG,217.40,T,,M,0.00,N,0.0,K,A*0D
$GPGGA,075857.000,5102.0344,N,01344.3733,E,1,10,1.0,117.0,M,45.8,M,,0000*59
$GPGSA,A,3,05,15,19,28,27,18,26,07,21,08,,,1.6,1.0,1.3*31
$GPGSV,3,1,12,26,78,298,47,28,60,132,47,08,52,062,46,05,37,208,35*78
$GPGSV,3,2,12,15,34,297,45,27,20,257,31,07,12,071,25,19,11,034,31*78
$GPGSV,3,3,12,21,06,307,26,18,05,327,32,09,03,254,20,10,00,170,*78
$GPRMC,075857.000,A,5102.0344,N,01344.3733,E,0.00,217.40,100712,,,A*60
$GPVTG,217.40,T,,M,0.00,N,0.0,K,A*0D
$GPGGA,075858.000,5102.0344,N,01344.3733,E,1,10,1.0,117.0,M,45.8,M,,0000*56
$GPRMC,075858.000,A,5102.0344,N,01344.3733,E,0.00,217.40,100712,,,A*6F
$GPVTG,217.40,T,,M,0.00,N,0.0,K,A*0D
$GPGGA,075859.000,5102.0344,N,01344.3733,E,1,10,1.0,117.0,M,45.8,M,,0000*57
$GPRMC,075859.000,A,5102.0344,N,01344.3733,E,0.00,217.40,100712,,,A*6E
$GPVTG,217.40,T,,M,0.00,N,0.0,K,A*0D
$GPGGA,075900.000,5102.0344,N,01344.3733,E,1,10,1.0,117.0,M,45.8,M,,0000*5A
$GPRMC,075900.000,A,5102.0344,N,01344.3733,E,0.00,217.40,100712,,,A*63
$GPVTG,217.40,T,,M,0.00,N,0.0,K,A*0D
$GPGGA,075901.000,5102.0344,N,01344.3733,E,1,10,1.0,117.0,M,45.8,M,,0000*5B
$GPRMC,075901.000,A,5102.0344,N,01344.3733,E,0.00,217.40,100712,,,A*62
$GPVTG,217.40,T,,M,0.00,N,0.0,K,A*0D
$GPGGA,075902.000,5102.0344,N,01344.3733,E,1,09,1.0,117.0,M,45.8,M,,0000*50
$GPGSA,A,3,05,15,19,28,27,26,07,21,08,,,,1.7,1.0,1.3*39
$GPGSV,3,1,12,26,78,298,45,28,60,132,47,08,52,062,46,05,37,208,40*78
$GPGSV,3,2,12,15,34,297,36,27,20,257,41,07,12,071,25,19,11,034,32*78
$GPGSV,3,3,12,21,06,307,26,18,05,327,27,09,03,254,,10,00,170,*7E
$GPRMC,075902.000,A,5102.0344,N,01344.3733,E,0.00,217.40,100712,,,A*61
$GPVTG,217.40,T,,M,0.00,N,0.0,K,A*0D
$GPGGA,075903.000,5102.0196,N,01344.3627,E,1,09,1.0,118.1,M,45.8,M,,0000*56
$GPRMC,075903.000,A,5102.0196,N,01344.3627,E,1.09,196.62,100712,,,A*6B
$GPVTG,196.62,T,,M,1.09,N,2.0,K,A*0D
$GPGGA,075904.000,5102.0190,N,01344.3623,E,1,10,1.0,117.9,M,45.8,M,,0000*5C
$GPRMC,075904.000,A,5102.0190,N,01344.3623,E,2.37,200.13,100712,,,A*6A
$GPVTG,200.13,T,,M,2.37,N,4.4,K,A*0B
$GPGGA,075905.000,5102.0183,N,01344.3620,E,1,10,1.0,117.6,M,45.8,M,,0000*53
$GPRMC,075905.000,A,5102.0183,N,01344.3620,E,2.58,196.27,100712,,,A*68
$GPVTG,196.27,T,,M,2.58,N,4.8,K,A*05
$GPGGA,075906.000,5102.0176,N,01344.3615,E,1,10,1.0,117.3,M,45.8,M,,0000*59
$GPRMC,075906.000,A,5102.0176,N,01344.3615,E,2.78,203.27,100712,,,A*6A
$GPVTG,203.27,T,,M,2.78,N,5.1,K,A*00
$GPGGA,075907.000,5102.0169,N,01344.3610,E,1,10,1.0,117.1,M,45.8,M,,0000*51
$GPGSA,A,3,05,15,19,28,27,18,26,07,21,08,,,1.6,1.0,1.3*31
$GPGSV,3,1,12,26,78,298,29,28,60,132,47,08,52,062,46,05,37,208,41*73
$GPGSV,3,2,12,15,34,297,42,27,20,257,39,07,12,071,25,19,11,034,30*76
$GPGSV,3,3,12,21,06,307,29,18,05,327,32,09,03,254,,10,00,170,*75
$GPRMC,075907.000,A,5102.0169,N,01344.3610,E,2.85,205.15,100712,,,A*65
$GPVTG,205.15,T,,M,2.85,N,5.3,K,A*07
$GPGGA,075908.000,5102.0162,N,01344.3604,E,1,10,1.0,116.8,M,45.8,M,,0000*58
$GPRMC,075908.000,A,5102.0162,N,01344.3604,E,2.86,201.78,100712,,,A*68
$GPVTG,201.78,T,,M,2.86,N,5.3,K,A*0B
$GPGGA,075909.000,5102.0154,N,01344.3599,E,1,09,1.0,116.7,M,45.8,M,,0000*5C
$GPRMC,075909.000,A,5102.0154,N,01344.3599,E,3.01,201.42,100712,,,A*6C
$GPVTG,201.42,T,,M,3.01,N,5.6,K,A*09
$GPGGA,075910.000,5102.0147,N,01344.3594,E,1,09,1.0,116.7,M,45.8,M,,0000*5B
$GPRMC,075910.000,A,5102.0147,N,01344.3594,E,2.92,201.25,100712,,,A*61
$GPVTG,201.25,T,,M,2.92,N,5.4,K,A*01
$GPGGA,075911.000,5102.0139,N,01344.3588,E,1,09,1.0,116.7,M,45.8,M,,0000*5E
$GPRMC,075911.000,A,5102.0139,N,01344.3588,E,2.87,207.06,100712,,,A*67
$GPVTG,207.06,T,,M,2.87,N,5.3,K,A*05
$GPGGA,075912.000,5102.0132,N,01344.3582,E,1,09,1.0,116.7,M,45.8,M,,0000*5C
$GPGSA,A,3,05,15,19,28,27,18,26,07,08,,,,1.7,1.0,1.3*33
$GPGSV,3,1,12,26,78,298,45,28,60,132,47,08,52,062,46,05,37,208,41*79
$GPGSV,3,2,12,15,34,297,34,27,20,257,41,07,12,071,25,19,11,034,31*79
$GPGSV,3,3,12,21,06,307,21,18,05,327,29,09,03,254,,10,00,170,*77
$GPRMC,075912.000,A,5102.0132,N,01344.3582,E,2.94,205.93,100712,,,A*69
$GPVTG,205.93,T,,M,2.94,N,5.4,K,A*0E
$GPGGA,075913.000,5102.0124,N,01344.3576,E,1,09,1.0,116.8,M,45.8,M,,0000*5E
$GPRMC,075913.000,A,5102.0124,N,01344.3576,E,2.84,201.13,100712,,,A*69
$GPVTG,201.13,T,,M,2.84,N,5.3,K,A*04
$GPGGA,075914.000,5102.0117,N,01344.3571,E,1,10,1.0,116.9,M,45.8,M,,0000*57
$GPRMC,075914.000,A,5102.0117,N,01344.3571,E,2.81,204.42,100712,,,A*6D
$GPVTG,204.42,T,,M,2.81,N,5.2,K,A*01
$GPGGA,075915.000,5102.0110,N,01344.3566,E,1,10,1.0,116.9,M,45.8,M,,0000*57
$GPRMC,075915.000,A,5102.0110,N,01344.3566,E,2.79,202.14,100712,,,A*6F
$GPVTG,202.14,T,,M,2.79,N,5.2,K,A*03
$GPGGA,075916.000,5102.0103,N,01344.3561,E,1,10,1.0,116.8,M,45.8,M,,0000*50
$GPRMC,075916.000,A,5102.0103,N,01344.3561,E,2.70,205.24,100712,,,A*64
$GPVTG,205.24,T,,M,2.70,N,5.0,K,A*0C
$GPGGA,075917.000,5102.0096,N,01344.3556,E,1,09,1.0,116.6,M,45.8,M,,0000*5E
$GPGSA,A,3,05,15,19,28,27,26,07,21,08,,,,1.7,1.0,1.3*39
$GPGSV,3,1,12,26,78,298,46,28,61,131,39,08,52,062,46,05,37,207,40*7F
$GPGSV,3,2,12,15,35,298,43,27,21,257,32,07,12,071,25,19,11,034,35*76
$GPGSV,3,3,12,21,06,307,28,18,05,327,27,09,03,254,,10,00,170,*70
$GPRMC,075917.000,A,5102.0096,N,01344.3556,E,2.93,197.32,100712,,,A*6E
$GPVTG,197.32,T,,M,2.93,N,5.4,K,A*0A
$GPGGA,075918.000,5102.0088,N,01344.3553,E,1,09,1.0,116.6,M,45.8,M,,0000*5B
$GPRMC,075918.000,A,5102.0088,N,01344.3553,E,3.00,190.08,100712,,,A*6E
$GPVTG,190.08,T,,M,3.00,N,5.5,K,A*0E
$GPGGA,075919.000,5102.0080,N,01344.3551,E,1,09,1.0,116.5,M,45.8,M,,0000*53
$GPRMC,075919.000,A,5102.0080,N,01344.3551,E,2.71,189.07,100712,,,A*65
$GPVTG,189.07,T,,M,2.71,N,5.0,K,A*0B
$GPGGA,075920.000,5102.0074,N,01344.3548,E,1,09,1.0,116.3,M,45.8,M,,0000*5C
$GPRMC,075920.000,A,5102.0074,N,01344.3548,E,2.51,192.70,100712,,,A*64
$GPVTG,192.70,T,,M,2.51,N,4.7,K,A*05
$GPGGA,075921.000,5102.0068,N,01344.3546,E,1,09,1.0,116.3,M,45.8,M,,0000*5E
$GPRMC,075921.000,A,5102.0068,N,01344.3546,E,0.00,192.70,100712,,,A*60
$GPVTG,192.70,T,,M,0.00,N,0.0,K,A*00
$GPGGA,075922.000,5102.0064,N,01344.3544,E,1,09,1.0,116.2,M,45.8,M,,0000*52
$GPGSA,A,3,05,15,19,28,27,26,07,21,08,,,,1.7,1.0,1.3*39
$GPGSV,3,1,12,26,78,298,39,28,61,131,38,08,52,062,46,05,37,207,41*77
$GPGSV,3,2,12,15,35,298,39,27,21,257,38,07,12,071,25,19,11,034,34*70
$GPGSV,3,3,12,21,06,307,25,18,05,327,,09,03,254,,10,00,170,*78
$GPRMC,075922.000,A,5102.0064,N,01344.3544,E,0.00,192.70,100712,,,A*6D
$GPVTG,192.70,T,,M,0.00,N,0.0,K,A*00
$GPGGA,075923.000,5102.0064,N,01344.3544,E,1,10,1.0,116.2,M,45.8,M,,0000*5B
$GPRMC,075923.000,A,5102.0064,N,01344.3544,E,0.00,192.70,100712,,,A*6C
$GPVTG,192.70,T,,M,0.00,N,0.0,K,A*00
$GPGGA,075924.000,5102.0064,N,01344.3544,E,1,10,1.0,116.2,M,45.8,M,,0000*5C
$GPRMC,075924.000,A,5102.0064,N,01344.3544,E,0.00,192.70,100712,,,A*6B
$GPVTG,192.70,T,,M,0.00,N,0.0,K,A*00
$GPGGA,075925.000,5102.0064,N,01344.3544,E,1,10,1.0,116.2,M,45.8,M,,0000*5D
$GPRMC,075925.000,A,5102.0064,N,01344.3544,E,0.00,192.70,100712,,,A*6A
$GPVTG,192.70,T,,M,0.00,N,0.0,K,A*00
